State,City,Latitude,Longitude,Region
Lagos,Lagos,6.5244,3.3792,South West
Abuja,Abuja,9.0765,7.3986,North Central
Kano,Kano,12.0022,8.5920,North West
Rivers,Port Harcourt,4.8156,7.0498,South South
Oyo,Ibadan,7.3775,3.9470,South West
Kaduna,Kaduna,10.5264,7.4381,North West
Enugu,Enugu,6.4413,7.4988,South East
Delta,Asaba,6.1833,6.75,South South
Ogun,Abeokuta,7.1557,3.3451,South West
Plateau,Jos,9.9179,8.9001,North Central

